{"_id":"5b9fac754fb73d58bc0c1000","address":"23 Bruce Lane","capacity":5,"endDate":1556236800000,"latitude":-33.9247853,"longitude":151.2256029,"owner":"5b9fac744fb73d58bc0c0f21","pictures":["image\/135.jpg","image\/203.jpg","image\/6.jpg"],"postcode":2032,"price":279,"startDate":1555977600000,"suburb":"Kingsford","dis":155.6976086662}
{"_id":"5b9fac754fb73d58bc0c10ee","address":"29 Bunnerong Road","capacity":6,"endDate":1544659200000,"latitude":-33.9260774,"longitude":151.2284358,"owner":"5b9fac744fb73d58bc0c0f26","pictures":["image\/114.jpg","image\/264.jpg","image\/122.jpg","image\/303.jpg","image\/275.jpg"],"postcode":2032,"price":365,"startDate":1544400000000,"suburb":"Kingsford","dis":266.2876080074}
{"_id":"5b9fac754fb73d58bc0c1341","address":"27 Harbourne Road","capacity":7,"endDate":1537660800000,"latitude":-33.9220106,"longitude":151.2287615,"owner":"5b9fac744fb73d58bc0c0f31","pictures":["image\/130.jpg","image\/121.jpg","image\/117.jpg","image\/34.jpg"],"postcode":2032,"price":359,"startDate":1537142400000,"suburb":"Kingsford","dis":274.5005606486}
{"_id":"5b9fac754fb73d58bc0c1089","address":"27 Doran Street","capacity":6,"endDate":1564531200000,"latitude":-33.9247625,"longitude":151.2241124,"owner":"5b9fac744fb73d58bc0c0f29","pictures":["image\/166.jpg","image\/46.jpg"],"postcode":2032,"price":340,"startDate":1564272000000,"suburb":"Kingsford","dis":279.5949896445}
{"_id":"5b9fac754fb73d58bc0c1203","address":"11 Sturt Lane","capacity":7,"endDate":1538697600000,"latitude":-33.9263019,"longitude":151.2297078,"owner":"5b9fac744fb73d58bc0c0f74","pictures":["image\/124.jpg","image\/58.jpg","image\/190.jpg"],"postcode":2032,"price":367,"startDate":1538179200000,"suburb":"Kingsford","dis":357.6788728861}
{"_id":"5b9fac754fb73d58bc0c0fe0","address":"17 Strachan Street","capacity":8,"endDate":1541980800000,"latitude":-33.9213959,"longitude":151.224597,"owner":"5b9fac744fb73d58bc0c0f3c","pictures":["image\/91.jpg","image\/118.jpg","image\/133.jpg"],"postcode":2032,"price":293,"startDate":1541462400000,"suburb":"Kingsford","dis":364.7011644354}
{"_id":"5b9fac754fb73d58bc0c0fc7","address":"3 Anderson Street","capacity":6,"endDate":1552953600000,"latitude":-33.9277486,"longitude":151.2295745,"owner":"5b9fac744fb73d58bc0c0f4b","pictures":["image\/188.jpg","image\/284.jpg"],"postcode":2032,"price":276,"startDate":1552780800000,"suburb":"Kingsford","dis":479.7571974878}
{"_id":"5b9fac754fb73d58bc0c1103","address":"25 Colonel Braund Crescent","capacity":3,"endDate":1549584000000,"latitude":-33.928427,"longitude":151.2282164,"owner":"5b9fac744fb73d58bc0c0f68","pictures":["image\/154.jpg","image\/59.jpg","image\/133.jpg","image\/251.jpg"],"postcode":2032,"price":274,"startDate":1549152000000,"suburb":"Kingsford","dis":504.8916878543}
{"_id":"5b9fac754fb73d58bc0c117a","address":"13 Southern Drive","capacity":6,"endDate":1552003200000,"latitude":-33.919227,"longitude":151.2289161,"owner":"5b9fac744fb73d58bc0c0f76","pictures":["image\/116.jpg","image\/86.jpg","image\/64.jpg","image\/292.jpg","image\/185.jpg"],"postcode":2033,"price":312,"startDate":1551830400000,"suburb":"Kingsford","dis":559.4063684317}
{"_id":"5b9fac754fb73d58bc0c1189","address":"3 Barker Street","capacity":2,"endDate":1538870400000,"latitude":-33.9194373,"longitude":151.2243831,"owner":"5b9fac744fb73d58bc0c0f70","pictures":["image\/127.jpg","image\/110.jpg","image\/49.jpg","image\/292.jpg","image\/259.jpg"],"postcode":2033,"price":343,"startDate":1538352000000,"suburb":"Kingsford","dis":561.8774202283}
{"_id":"5b9fac754fb73d58bc0c1191","address":"11 Hayward Street","capacity":6,"endDate":1555027200000,"latitude":-33.9282406,"longitude":151.2308209,"owner":"5b9fac744fb73d58bc0c0f32","pictures":["image\/93.jpg","image\/137.jpg","image\/225.jpg","image\/35.jpg","image\/108.jpg"],"postcode":2032,"price":391,"startDate":1554422400000,"suburb":"Kingsford","dis":588.7481507065}
{"_id":"5b9fac754fb73d58bc0c1286","address":"21 Kennedy Lane","capacity":3,"endDate":1565308800000,"latitude":-33.9208168,"longitude":151.2323505,"owner":"5b9fac744fb73d58bc0c0f54","pictures":["image\/72.jpg","image\/60.jpg","image\/181.jpg","image\/81.jpg","image\/66.jpg"],"postcode":2032,"price":260,"startDate":1564876800000,"suburb":"Kingsford","dis":607.4612940245}
{"_id":"5b9fac754fb73d58bc0c104b","address":"5 Lancaster Crescent","capacity":1,"endDate":1539907200000,"latitude":-33.9299776,"longitude":151.2304853,"owner":"5b9fac744fb73d58bc0c0f39","pictures":["image\/51.jpg","image\/276.jpg","image\/219.jpg","image\/284.jpg","image\/101.jpg"],"postcode":2032,"price":273,"startDate":1539302400000,"suburb":"Kingsford","dis":738.3789967907}
{"_id":"5b9fac754fb73d58bc0c11e5","address":"27 Tresidder Avenue","capacity":4,"endDate":1534982400000,"latitude":-33.9219282,"longitude":151.218674,"owner":"5b9fac744fb73d58bc0c0f6e","pictures":["image\/31.jpg","image\/81.jpg"],"postcode":2032,"price":324,"startDate":1534809600000,"suburb":"Kingsford","dis":802.0242396644}
{"_id":"5b9fac754fb73d58bc0c124a","address":"21 Lancaster Crescent","capacity":2,"endDate":1537142400000,"latitude":-33.9307326,"longitude":151.2309407,"owner":"5b9fac744fb73d58bc0c0f44","pictures":["image\/44.jpg","image\/192.jpg","image\/189.jpg","image\/29.jpg"],"postcode":2032,"price":356,"startDate":1536537600000,"suburb":"Kingsford","dis":832.25045349}
{"_id":"5b9fac754fb73d58bc0c112f","address":"25 Jane Street","capacity":3,"endDate":1541548800000,"latitude":-33.92258,"longitude":151.2361132,"owner":"5b9fac744fb73d58bc0c0f68","pictures":["image\/210.jpg","image\/63.jpg","image\/3.jpg","image\/12.jpg","image\/259.jpg"],"postcode":2031,"price":398,"startDate":1541203200000,"suburb":"Randwick","dis":855.5527441568}
{"_id":"5b9fac754fb73d58bc0c12a6","address":"25 Mcnair Avenue","capacity":6,"endDate":1566172800000,"latitude":-33.9265123,"longitude":151.2360268,"owner":"5b9fac744fb73d58bc0c0f71","pictures":["image\/218.jpg","image\/236.jpg","image\/122.jpg"],"postcode":2032,"price":345,"startDate":1566086400000,"suburb":"Kingsford","dis":878.4664640724}
{"_id":"5b9fac754fb73d58bc0c0fb8","address":"15 Hincks Street","capacity":1,"endDate":1550793600000,"latitude":-33.9301994,"longitude":151.2333998,"owner":"5b9fac744fb73d58bc0c0f56","pictures":["image\/221.jpg","image\/228.jpg","image\/271.jpg","image\/8.jpg","image\/225.jpg"],"postcode":2032,"price":260,"startDate":1550534400000,"suburb":"Kingsford","dis":907.6601267409}
{"_id":"5b9fac754fb73d58bc0c1304","address":"1 Jellicoe Avenue","capacity":4,"endDate":1552003200000,"latitude":-33.92806,"longitude":151.2367699,"owner":"5b9fac744fb73d58bc0c0f69","pictures":["image\/180.jpg","image\/184.jpg","image\/293.jpg","image\/67.jpg","image\/198.jpg"],"postcode":2032,"price":340,"startDate":1551398400000,"suburb":"Kingsford","dis":1008.1495615663}
{"_id":"5b9fac754fb73d58bc0c1119","address":"1 Gate 7 Avenue","capacity":2,"endDate":1539475200000,"latitude":-33.9160461,"longitude":151.2324171,"owner":"5b9fac744fb73d58bc0c0f26","pictures":["image\/283.jpg","image\/274.jpg","image\/121.jpg","image\/208.jpg","image\/301.jpg"],"postcode":2033,"price":324,"startDate":1539302400000,"suburb":"Randwick","dis":1015.9065637666}
{"_id":"5b9fac754fb73d58bc0c1179","address":"13 Gate Seven Avenue","capacity":8,"endDate":1546992000000,"latitude":-33.9160461,"longitude":151.2324171,"owner":"5b9fac744fb73d58bc0c0f6d","pictures":["image\/37.jpg","image\/147.jpg"],"postcode":2033,"price":353,"startDate":1546905600000,"suburb":"Randwick","dis":1015.9065637666}
{"_id":"5b9fac754fb73d58bc0c0fb3","address":"21 Gate 7 Avenue","capacity":7,"endDate":1548547200000,"latitude":-33.9160461,"longitude":151.2324171,"owner":"5b9fac744fb73d58bc0c0f7f","pictures":["image\/43.jpg","image\/71.jpg","image\/185.jpg","image\/22.jpg","image\/272.jpg"],"postcode":2033,"price":350,"startDate":1548374400000,"suburb":"Randwick","dis":1015.9065637666}
{"_id":"5b9fac754fb73d58bc0c11ae","address":"7 Gate 7 Avenue","capacity":2,"endDate":1540425600000,"latitude":-33.9160461,"longitude":151.2324171,"owner":"5b9fac744fb73d58bc0c0f7b","pictures":["image\/287.jpg","image\/156.jpg","image\/17.jpg","image\/260.jpg"],"postcode":2033,"price":275,"startDate":1540252800000,"suburb":"Randwick","dis":1015.9065637666}
{"_id":"5b9fac754fb73d58bc0c11e1","address":"3 Jellicoe Avenue","capacity":5,"endDate":1555200000000,"latitude":-33.9281146,"longitude":151.2369124,"owner":"5b9fac744fb73d58bc0c0f56","pictures":["image\/67.jpg","image\/86.jpg","image\/226.jpg"],"postcode":2032,"price":382,"startDate":1554681600000,"suburb":"Randwick","dis":1022.6239583847}
{"_id":"5b9fac754fb73d58bc0c1156","address":"7 Leonora Avenue","capacity":3,"endDate":1538265600000,"latitude":-33.9334496,"longitude":151.2326712,"owner":"5b9fac744fb73d58bc0c0f5f","pictures":["image\/201.jpg","image\/70.jpg","image\/96.jpg"],"postcode":2032,"price":372,"startDate":1538006400000,"suburb":"Kingsford","dis":1173.8172575061}
{"_id":"5b9fac754fb73d58bc0c0feb","address":"25 Fischer Street","capacity":2,"endDate":1547510400000,"latitude":-33.9326843,"longitude":151.2356313,"owner":"5b9fac744fb73d58bc0c0f21","pictures":["image\/226.jpg","image\/144.jpg","image\/105.jpg"],"postcode":2032,"price":318,"startDate":1547424000000,"suburb":"Kingsford","dis":1251.6571035716}
{"_id":"5b9fac754fb73d58bc0c1204","address":"23 Helena Lane","capacity":8,"endDate":1549929600000,"latitude":-33.9252886,"longitude":151.241348,"owner":"5b9fac744fb73d58bc0c0f4d","pictures":["image\/68.jpg","image\/156.jpg","image\/235.jpg","image\/17.jpg","image\/187.jpg"],"postcode":2031,"price":292,"startDate":1549756800000,"suburb":"Randwick","dis":1331.5710168908}
{"_id":"5b9fac754fb73d58bc0c11a6","address":"23 Smith Street","capacity":3,"endDate":1535241600000,"latitude":-33.9337117,"longitude":151.2359103,"owner":"5b9fac744fb73d58bc0c0f82","pictures":["image\/41.jpg","image\/265.jpg","image\/259.jpg"],"postcode":2032,"price":294,"startDate":1535155200000,"suburb":"Kingsford","dis":1357.1970654324}
{"_id":"5b9fac754fb73d58bc0c109f","address":"29 Botany Lane","capacity":3,"endDate":1550275200000,"latitude":-33.9149913,"longitude":151.2372253,"owner":"5b9fac744fb73d58bc0c0f71","pictures":["image\/3.jpg","image\/290.jpg","image\/4.jpg"],"postcode":2031,"price":399,"startDate":1549843200000,"suburb":"Kingsford","dis":1376.1018681109}
{"_id":"5b9fac754fb73d58bc0c11c8","address":"1 Soudan Street","capacity":1,"endDate":1539820800000,"latitude":-33.9192694,"longitude":151.2413241,"owner":"5b9fac744fb73d58bc0c0f52","pictures":["image\/86.jpg","image\/35.jpg","image\/108.jpg","image\/48.jpg"],"postcode":2031,"price":399,"startDate":1539734400000,"suburb":"Randwick","dis":1422.510440582}
{"_id":"5b9fac754fb73d58bc0c0fd1","address":"17 St Pauls Lane","capacity":4,"endDate":1541376000000,"latitude":-33.9198183,"longitude":151.2415973,"owner":"5b9fac744fb73d58bc0c0f4d","pictures":["image\/61.jpg","image\/44.jpg","image\/75.jpg","image\/54.jpg","image\/91.jpg"],"postcode":2031,"price":361,"startDate":1541030400000,"suburb":"Randwick","dis":1424.888794869}
{"_id":"5b9fac754fb73d58bc0c1315","address":"19 Botany Street","capacity":1,"endDate":1559433600000,"latitude":-33.9142108,"longitude":151.2371516,"owner":"5b9fac744fb73d58bc0c0f7f","pictures":["image\/36.jpg","image\/1.jpg","image\/240.jpg"],"postcode":2031,"price":393,"startDate":1559260800000,"suburb":"Kingsford","dis":1436.0655569793}
{"_id":"5b9fac754fb73d58bc0c10de","address":"27 St Pauls Street","capacity":3,"endDate":1552176000000,"latitude":-33.919934,"longitude":151.2420528,"owner":"5b9fac744fb73d58bc0c0f40","pictures":["image\/182.jpg","image\/272.jpg","image\/74.jpg","image\/124.jpg","image\/180.jpg"],"postcode":2031,"price":377,"startDate":1551657600000,"suburb":"Randwick","dis":1460.646708503}
{"_id":"5b9fac754fb73d58bc0c1092","address":"15 Botany Lane","capacity":1,"endDate":1550188800000,"latitude":-33.9139241,"longitude":151.237344,"owner":"5b9fac744fb73d58bc0c0f40","pictures":["image\/60.jpg","image\/108.jpg"],"postcode":2031,"price":347,"startDate":1550102400000,"suburb":"Kingsford","dis":1471.8290139406}
{"_id":"5b9fac754fb73d58bc0c12d6","address":"7 Cuthill Street","capacity":2,"endDate":1554336000000,"latitude":-33.9183579,"longitude":151.2415132,"owner":"5b9fac744fb73d58bc0c0f6f","pictures":["image\/10.jpg","image\/38.jpg","image\/179.jpg","image\/92.jpg"],"postcode":2031,"price":288,"startDate":1553817600000,"suburb":"Randwick","dis":1478.811196241}
{"_id":"5b9fac754fb73d58bc0c0fac","address":"23 Perouse Road","capacity":5,"endDate":1540339200000,"latitude":-33.9190781,"longitude":151.2427058,"owner":"5b9fac744fb73d58bc0c0f42","pictures":["image\/277.jpg","image\/115.jpg","image\/68.jpg"],"postcode":2031,"price":284,"startDate":1540080000000,"suburb":"Randwick","dis":1549.0722682588}
{"_id":"5b9fac754fb73d58bc0c0f90","address":"15 Perouse Road","capacity":6,"endDate":1546214400000,"latitude":-33.9188309,"longitude":151.2425984,"owner":"5b9fac744fb73d58bc0c0f54","pictures":["image\/239.jpg","image\/32.jpg","image\/157.jpg"],"postcode":2031,"price":262,"startDate":1545609600000,"suburb":"Randwick","dis":1549.7902694498}
{"_id":"5b9fac754fb73d58bc0c1027","address":"5 Aeolia Street","capacity":5,"endDate":1542672000000,"latitude":-33.9192832,"longitude":151.2429413,"owner":"5b9fac744fb73d58bc0c0f3f","pictures":["image\/21.jpg","image\/120.jpg","image\/76.jpg"],"postcode":2031,"price":285,"startDate":1542240000000,"suburb":"Randwick","dis":1561.610886766}
{"_id":"5b9fac754fb73d58bc0c0f87","address":"23 Short Street","capacity":3,"endDate":1558137600000,"latitude":-33.9158453,"longitude":151.2412365,"owner":"5b9fac744fb73d58bc0c0f6f","pictures":["image\/99.jpg","image\/60.jpg"],"postcode":2031,"price":344,"startDate":1557619200000,"suburb":"Randwick","dis":1596.1908083132}
{"_id":"5b9fac754fb73d58bc0c1117","address":"15 Ivy Street","capacity":5,"endDate":1553299200000,"latitude":-33.9224421,"longitude":151.2443755,"owner":"5b9fac744fb73d58bc0c0f3c","pictures":["image\/260.jpg","image\/10.jpg","image\/104.jpg","image\/288.jpg"],"postcode":2031,"price":317,"startDate":1552780800000,"suburb":"Randwick","dis":1612.5347155575}
{"_id":"5b9fac754fb73d58bc0c10a8","address":"27 Silver Street","capacity":5,"endDate":1542067200000,"latitude":-33.9135415,"longitude":151.239279,"owner":"5b9fac744fb73d58bc0c0f4b","pictures":["image\/199.jpg","image\/113.jpg","image\/253.jpg"],"postcode":2031,"price":379,"startDate":1541808000000,"suburb":"Randwick","dis":1623.6197783203}
{"_id":"5b9fac754fb73d58bc0c1295","address":"29 Silver Street","capacity":3,"endDate":1553299200000,"latitude":-33.9135415,"longitude":151.239279,"owner":"5b9fac744fb73d58bc0c0f66","pictures":["image\/105.jpg","image\/22.jpg"],"postcode":2031,"price":329,"startDate":1552694400000,"suburb":"Randwick","dis":1623.6197783203}
{"_id":"5b9fac754fb73d58bc0c12cc","address":"27 Ada Lane","capacity":1,"endDate":1535846400000,"latitude":-33.9168191,"longitude":151.2423223,"owner":"5b9fac744fb73d58bc0c0f81","pictures":["image\/167.jpg","image\/28.jpg"],"postcode":2031,"price":368,"startDate":1535328000000,"suburb":"Randwick","dis":1623.7037352723}
{"_id":"5b9fac754fb73d58bc0c1262","address":"15 Ada Street","capacity":8,"endDate":1558742400000,"latitude":-33.9173708,"longitude":151.2436012,"owner":"5b9fac744fb73d58bc0c0f29","pictures":["image\/241.jpg","image\/204.jpg","image\/176.jpg"],"postcode":2031,"price":316,"startDate":1558310400000,"suburb":"Randwick","dis":1699.9391716808}
{"_id":"5b9fac754fb73d58bc0c120b","address":"21 Greenstead Lane","capacity":1,"endDate":1562371200000,"latitude":-33.9136188,"longitude":151.2413734,"owner":"5b9fac744fb73d58bc0c0f7b","pictures":["image\/279.jpg","image\/105.jpg","image\/51.jpg"],"postcode":2031,"price":397,"startDate":1562025600000,"suburb":"Randwick","dis":1758.2648734682}
{"_id":"5b9fac754fb73d58bc0c1269","address":"9 Meymott Street","capacity":5,"endDate":1536710400000,"latitude":-33.9228638,"longitude":151.2462314,"owner":"5b9fac744fb73d58bc0c0f5a","pictures":["image\/13.jpg","image\/195.jpg","image\/78.jpg","image\/169.jpg","image\/98.jpg"],"postcode":2031,"price":281,"startDate":1536192000000,"suburb":"Randwick","dis":1778.9306553652}
{"_id":"5b9fac754fb73d58bc0c118e","address":"1 Budjan Street","capacity":3,"endDate":1546646400000,"latitude":-33.9307558,"longitude":151.2447793,"owner":"5b9fac744fb73d58bc0c0f6e","pictures":["image\/15.jpg","image\/56.jpg"],"postcode":2031,"price":352,"startDate":1546387200000,"suburb":"Randwick","dis":1804.2078798504}
{"_id":"5b9fac754fb73d58bc0c133d","address":"21 George Street","capacity":5,"endDate":1562025600000,"latitude":-33.9273197,"longitude":151.2077768,"owner":"5b9fac744fb73d58bc0c0f5e","pictures":["image\/281.jpg","image\/70.jpg"],"postcode":2020,"price":354,"startDate":1561766400000,"suburb":"Mascot","dis":1811.6410448808}
{"_id":"5b9fac754fb73d58bc0c12f9","address":"19 Maloney Street","capacity":8,"endDate":1546041600000,"latitude":-33.9242037,"longitude":151.2065332,"owner":"5b9fac744fb73d58bc0c0f4a","pictures":["image\/182.jpg","image\/150.jpg","image\/246.jpg","image\/217.jpg","image\/135.jpg"],"postcode":2018,"price":350,"startDate":1545696000000,"suburb":"Mascot","dis":1888.5472647402}
{"_id":"5b9fac754fb73d58bc0c1234","address":"5 Coogee Street","capacity":7,"endDate":1562630400000,"latitude":-33.9156634,"longitude":151.2450586,"owner":"5b9fac744fb73d58bc0c0f3f","pictures":["image\/41.jpg","image\/129.jpg"],"postcode":2031,"price":329,"startDate":1562457600000,"suburb":"Randwick","dis":1906.7913179393}
{"_id":"5b9fac754fb73d58bc0c1155","address":"29 Harry Street","capacity":7,"endDate":1546732800000,"latitude":-33.9309938,"longitude":151.2079447,"owner":"5b9fac744fb73d58bc0c0f77","pictures":["image\/248.jpg","image\/71.jpg","image\/232.jpg"],"postcode":2018,"price":311,"startDate":1546300800000,"suburb":"Mascot","dis":1922.4246795241}
{"_id":"5b9fac754fb73d58bc0c11e4","address":"1 Judge Street","capacity":4,"endDate":1559433600000,"latitude":-33.9149542,"longitude":151.2449504,"owner":"5b9fac744fb73d58bc0c0f4c","pictures":["image\/139.jpg","image\/272.jpg","image\/118.jpg"],"postcode":2031,"price":315,"startDate":1558915200000,"suburb":"Randwick","dis":1937.8147377277}
{"_id":"5b9fac754fb73d58bc0c100b","address":"27 Munda Street","capacity":1,"endDate":1554595200000,"latitude":-33.9305044,"longitude":151.2467569,"owner":"5b9fac744fb73d58bc0c0f4f","pictures":["image\/79.jpg","image\/69.jpg","image\/86.jpg","image\/192.jpg","image\/76.jpg"],"postcode":2031,"price":309,"startDate":1553990400000,"suburb":"Randwick","dis":1961.0860605471}
{"_id":"5b9fac754fb73d58bc0c1115","address":"13 Pitt Street","capacity":8,"endDate":1557705600000,"latitude":-33.9140331,"longitude":151.2445855,"owner":"5b9fac744fb73d58bc0c0f4d","pictures":["image\/133.jpg","image\/61.jpg","image\/129.jpg","image\/201.jpg"],"postcode":2031,"price":386,"startDate":1557532800000,"suburb":"Randwick","dis":1965.0146144352}
{"_id":"5b9fac754fb73d58bc0c1100","address":"9 Clyde Street","capacity":7,"endDate":1551225600000,"latitude":-33.9155206,"longitude":151.2456872,"owner":"5b9fac744fb73d58bc0c0f77","pictures":["image\/180.jpg","image\/62.jpg"],"postcode":2031,"price":269,"startDate":1550880000000,"suburb":"Randwick","dis":1965.2506630721}
{"_id":"5b9fac754fb73d58bc0c1363","address":"17 Mulwarree Avenue","capacity":3,"endDate":1563494400000,"latitude":-33.9079029,"longitude":151.2359046,"owner":"5b9fac744fb73d58bc0c0f74","pictures":["image\/291.jpg","image\/23.jpg","image\/212.jpg"],"postcode":2031,"price":266,"startDate":1563148800000,"suburb":"Randwick","dis":1969.506670637}
{"_id":"5b9fac754fb73d58bc0c1244","address":"7 Prince Lane","capacity":7,"endDate":1536364800000,"latitude":-33.9080608,"longitude":151.2369976,"owner":"5b9fac744fb73d58bc0c0f5d","pictures":["image\/198.jpg","image\/36.jpg","image\/6.jpg","image\/158.jpg","image\/30.jpg"],"postcode":2031,"price":326,"startDate":1535760000000,"suburb":"Randwick","dis":1998.0808659705}
{"_id":"5b9fac754fb73d58bc0c0f8f","address":"11 Chatham Street","capacity":4,"endDate":1549843200000,"latitude":-33.9178631,"longitude":151.2473785,"owner":"5b9fac744fb73d58bc0c0f34","pictures":["image\/123.jpg","image\/15.jpg","image\/53.jpg","image\/203.jpg","image\/301.jpg"],"postcode":2031,"price":257,"startDate":1549670400000,"suburb":"Randwick","dis":2000.3289267786}
{"_id":"5b9fac754fb73d58bc0c1140","address":"19 Church Street","capacity":7,"endDate":1553817600000,"latitude":-33.9088808,"longitude":151.2388875,"owner":"5b9fac744fb73d58bc0c0f3f","pictures":["image\/166.jpg","image\/297.jpg","image\/292.jpg"],"postcode":2031,"price":379,"startDate":1553299200000,"suburb":"Darlinghurst","dis":2007.3866807021}
{"_id":"5b9fac754fb73d58bc0c109a","address":"9 Mulwarree Avenue","capacity":7,"endDate":1561852800000,"latitude":-33.9075381,"longitude":151.2360412,"owner":"5b9fac744fb73d58bc0c0f81","pictures":["image\/263.jpg","image\/35.jpg","image\/13.jpg"],"postcode":2031,"price":356,"startDate":1561420800000,"suburb":"Randwick","dis":2011.6386724315}
{"_id":"5b9fac754fb73d58bc0c10e3","address":"1 William Street","capacity":1,"endDate":1566259200000,"latitude":-33.9071288,"longitude":151.2349027,"owner":"5b9fac744fb73d58bc0c0f78","pictures":["image\/197.jpg","image\/215.jpg","image\/218.jpg"],"postcode":2031,"price":350,"startDate":1565913600000,"suburb":"Randwick","dis":2012.7405786628}
{"_id":"5b9fac754fb73d58bc0c122f","address":"11 Harry Street","capacity":6,"endDate":1548720000000,"latitude":-33.9307891,"longitude":151.2066698,"owner":"5b9fac744fb73d58bc0c0f47","pictures":["image\/297.jpg","image\/95.jpg","image\/2.jpg"],"postcode":2018,"price":299,"startDate":1548201600000,"suburb":"Mascot","dis":2021.9488243903}
{"_id":"5b9fac754fb73d58bc0c1230","address":"15 Burton Street","capacity":8,"endDate":1553817600000,"latitude":-33.9082545,"longitude":151.2380568,"owner":"5b9fac744fb73d58bc0c0f3d","pictures":["image\/245.jpg","image\/164.jpg","image\/301.jpg"],"postcode":2031,"price":400,"startDate":1553299200000,"suburb":"Randwick","dis":2026.407783662}
{"_id":"5b9fac754fb73d58bc0c1267","address":"15 Burton Lane","capacity":4,"endDate":1543968000000,"latitude":-33.9082545,"longitude":151.2380568,"owner":"5b9fac744fb73d58bc0c0f3c","pictures":["image\/136.jpg","image\/193.jpg"],"postcode":2031,"price":307,"startDate":1543881600000,"suburb":"Randwick","dis":2026.407783662}
{"_id":"5b9fac754fb73d58bc0c1368","address":"5 Burton Street","capacity":3,"endDate":1560816000000,"latitude":-33.9083796,"longitude":151.2383943,"owner":"5b9fac744fb73d58bc0c0f82","pictures":["image\/210.jpg","image\/246.jpg","image\/170.jpg","image\/215.jpg","image\/285.jpg"],"postcode":2031,"price":282,"startDate":1560297600000,"suburb":"Randwick","dis":2030.3520988529}
{"_id":"5b9fac754fb73d58bc0c1109","address":"11 Cleland Street","capacity":6,"endDate":1540684800000,"latitude":-33.9277469,"longitude":151.2052917,"owner":"5b9fac744fb73d58bc0c0f1f","pictures":["image\/48.jpg","image\/134.jpg"],"postcode":2020,"price":295,"startDate":1540425600000,"suburb":"Mascot","dis":2045.7936384487}
{"_id":"5b9fac754fb73d58bc0c1185","address":"23 Wood Street","capacity":2,"endDate":1558137600000,"latitude":-33.9119821,"longitude":151.243977,"owner":"5b9fac744fb73d58bc0c0f5b","pictures":["image\/182.jpg","image\/204.jpg","image\/259.jpg","image\/65.jpg","image\/186.jpg"],"postcode":2031,"price":339,"startDate":1557964800000,"suburb":"Randwick","dis":2059.0758661744}
{"_id":"5b9fac754fb73d58bc0c1178","address":"1 Harry Street","capacity":6,"endDate":1564185600000,"latitude":-33.9307351,"longitude":151.2059868,"owner":"5b9fac744fb73d58bc0c0f1f","pictures":["image\/192.jpg","image\/127.jpg","image\/186.jpg","image\/80.jpg"],"postcode":2018,"price":274,"startDate":1563926400000,"suburb":"Mascot","dis":2078.3703312136}
{"_id":"5b9fac754fb73d58bc0c1174","address":"19 Oswald Street","capacity":6,"endDate":1550448000000,"latitude":-33.9156026,"longitude":151.2473358,"owner":"5b9fac744fb73d58bc0c0f41","pictures":["image\/298.jpg","image\/184.jpg","image\/260.jpg"],"postcode":2031,"price":365,"startDate":1550102400000,"suburb":"Randwick","dis":2095.9090406453}
{"_id":"5b9fac754fb73d58bc0c11f6","address":"3 Wood Lane","capacity":7,"endDate":1543622400000,"latitude":-33.9114645,"longitude":151.2439748,"owner":"5b9fac744fb73d58bc0c0f4e","pictures":["image\/69.jpg","image\/52.jpg","image\/48.jpg"],"postcode":2031,"price":369,"startDate":1543104000000,"suburb":"Randwick","dis":2096.7375622055}
{"_id":"5b9fac754fb73d58bc0c12cd","address":"3 Darley Road","capacity":8,"endDate":1549843200000,"latitude":-33.9052109,"longitude":151.2328603,"owner":"5b9fac744fb73d58bc0c0f34","pictures":["image\/196.jpg","image\/137.jpg","image\/31.jpg","image\/145.jpg","image\/55.jpg"],"postcode":2031,"price":283,"startDate":1549324800000,"suburb":"Randwick","dis":2158.1037387429}
{"_id":"5b9fac754fb73d58bc0c133f","address":"11 Carr Street","capacity":2,"endDate":1537142400000,"latitude":-33.9216806,"longitude":151.2503418,"owner":"5b9fac744fb73d58bc0c0f32","pictures":["image\/12.jpg","image\/55.jpg","image\/51.jpg","image\/91.jpg","image\/173.jpg"],"postcode":2034,"price":286,"startDate":1536883200000,"suburb":"Randwick","dis":2169.0981585284}
{"_id":"5b9fac754fb73d58bc0c1294","address":"17 Barden Lane","capacity":2,"endDate":1535932800000,"latitude":-33.907511,"longitude":151.2397121,"owner":"5b9fac744fb73d58bc0c0f45","pictures":["image\/70.jpg","image\/25.jpg"],"postcode":2031,"price":379,"startDate":1535846400000,"suburb":"Randwick","dis":2176.6212348025}
{"_id":"5b9fac754fb73d58bc0c1026","address":"19 Carr Street","capacity":5,"endDate":1536883200000,"latitude":-33.9217238,"longitude":151.2512982,"owner":"5b9fac744fb73d58bc0c0f76","pictures":["image\/81.jpg","image\/72.jpg","image\/267.jpg","image\/156.jpg","image\/164.jpg"],"postcode":2034,"price":357,"startDate":1536537600000,"suburb":"Randwick","dis":2256.1975927227}
{"_id":"5b9fac754fb73d58bc0c12f0","address":"17 Alison Road","capacity":4,"endDate":1566345600000,"latitude":-33.9036789,"longitude":151.2248404,"owner":"5b9fac744fb73d58bc0c0f6e","pictures":["image\/259.jpg","image\/182.jpg","image\/231.jpg","image\/246.jpg"],"postcode":2033,"price":321,"startDate":1566000000000,"suburb":"Randwick","dis":2268.3740470389}
{"_id":"5b9fac754fb73d58bc0c1004","address":"5 Stanley Street","capacity":7,"endDate":1556582400000,"latitude":-33.9078005,"longitude":151.2423135,"owner":"5b9fac744fb73d58bc0c0f82","pictures":["image\/94.jpg","image\/180.jpg","image\/208.jpg"],"postcode":2031,"price":349,"startDate":1556236800000,"suburb":"Randwick","dis":2289.4212646908}
{"_id":"5b9fac754fb73d58bc0c11cd","address":"11 Little Mort Street","capacity":8,"endDate":1555286400000,"latitude":-33.9049637,"longitude":151.2381991,"owner":"5b9fac744fb73d58bc0c0f56","pictures":["image\/287.jpg","image\/262.jpg","image\/300.jpg"],"postcode":2031,"price":307,"startDate":1554854400000,"suburb":"Randwick","dis":2355.5370333666}
{"_id":"5b9fac754fb73d58bc0c1288","address":"11 Stephen Lane","capacity":8,"endDate":1539907200000,"latitude":-33.9062754,"longitude":151.2415971,"owner":"5b9fac744fb73d58bc0c0f77","pictures":["image\/133.jpg","image\/180.jpg"],"postcode":2031,"price":345,"startDate":1539475200000,"suburb":"Randwick","dis":2387.2006133539}
{"_id":"5b9fac754fb73d58bc0c11d5","address":"9 Linden Street","capacity":7,"endDate":1560297600000,"latitude":-33.9291495,"longitude":151.2017979,"owner":"5b9fac744fb73d58bc0c0f74","pictures":["image\/165.jpg","image\/136.jpg"],"postcode":2020,"price":275,"startDate":1559779200000,"suburb":"Mascot","dis":2394.7201983452}
{"_id":"5b9fac754fb73d58bc0c10c7","address":"17 Wellington Street","capacity":7,"endDate":1552262400000,"latitude":-33.924519,"longitude":151.1996124,"owner":"5b9fac744fb73d58bc0c0f6c","pictures":["image\/284.jpg","image\/201.jpg","image\/100.jpg","image\/68.jpg"],"postcode":2018,"price":305,"startDate":1552176000000,"suburb":"Mascot","dis":2527.627506156}
{"_id":"5b9fac754fb73d58bc0c1299","address":"25 Earl Lane","capacity":3,"endDate":1540771200000,"latitude":-33.9047593,"longitude":151.2416124,"owner":"5b9fac744fb73d58bc0c0f49","pictures":["image\/217.jpg","image\/300.jpg","image\/79.jpg","image\/240.jpg","image\/175.jpg"],"postcode":2031,"price":281,"startDate":1540252800000,"suburb":"Randwick","dis":2528.9323358262}
{"_id":"5b9fac754fb73d58bc0c0fd9","address":"21 Fraser Street","capacity":7,"endDate":1560556800000,"latitude":-33.9073741,"longitude":151.2462354,"owner":"5b9fac744fb73d58bc0c0f7a","pictures":["image\/6.jpg","image\/143.jpg","image\/176.jpg","image\/264.jpg"],"postcode":2031,"price":319,"startDate":1560384000000,"suburb":"Randwick","dis":2562.8626568938}
{"_id":"5b9fac754fb73d58bc0c11a2","address":"11 Fraser Street","capacity":5,"endDate":1551225600000,"latitude":-33.9075507,"longitude":151.2464705,"owner":"5b9fac744fb73d58bc0c0f5e","pictures":["image\/261.jpg","image\/150.jpg","image\/137.jpg"],"postcode":2031,"price":255,"startDate":1550880000000,"suburb":"Randwick","dis":2563.8878324585}
{"_id":"5b9fac754fb73d58bc0c12a1","address":"1 Challis Street","capacity":8,"endDate":1539907200000,"latitude":-33.9046129,"longitude":151.2421408,"owner":"5b9fac744fb73d58bc0c0f1f","pictures":["image\/128.jpg","image\/30.jpg","image\/290.jpg"],"postcode":2031,"price":304,"startDate":1539388800000,"suburb":"Randwick","dis":2568.9093802866}
{"_id":"5b9fac754fb73d58bc0c106a","address":"19 Wentworth Lane","capacity":5,"endDate":1553126400000,"latitude":-33.9041316,"longitude":151.2415062,"owner":"5b9fac744fb73d58bc0c0f77","pictures":["image\/108.jpg","image\/101.jpg"],"postcode":2031,"price":355,"startDate":1552867200000,"suburb":"Randwick","dis":2583.1586341925}
{"_id":"5b9fac754fb73d58bc0c10c5","address":"15 Brussels Street","capacity":2,"endDate":1552953600000,"latitude":-33.932983,"longitude":151.2009738,"owner":"5b9fac744fb73d58bc0c0f56","pictures":["image\/243.jpg","image\/261.jpg","image\/273.jpg","image\/236.jpg"],"postcode":2020,"price":376,"startDate":1552867200000,"suburb":"Mascot","dis":2600.7055268756}
{"_id":"5b9fac754fb73d58bc0c11f8","address":"29 Sparks Street","capacity":8,"endDate":1537401600000,"latitude":-33.9333909,"longitude":151.2008872,"owner":"5b9fac744fb73d58bc0c0f70","pictures":["image\/138.jpg","image\/102.jpg","image\/40.jpg","image\/238.jpg","image\/177.jpg"],"postcode":2020,"price":394,"startDate":1537142400000,"suburb":"Mascot","dis":2625.7843814013}
{"_id":"5b9fac754fb73d58bc0c10d5","address":"19 Kemmis Street","capacity":2,"endDate":1543190400000,"latitude":-33.908342,"longitude":151.2493092,"owner":"5b9fac744fb73d58bc0c0f4d","pictures":["image\/232.jpg","image\/7.jpg","image\/149.jpg","image\/115.jpg"],"postcode":2031,"price":360,"startDate":1542844800000,"suburb":"Randwick","dis":2696.1475952595}
{"_id":"5b9fac754fb73d58bc0c1169","address":"27 Frogmore Lane","capacity":7,"endDate":1538092800000,"latitude":-33.932019,"longitude":151.1991272,"owner":"5b9fac744fb73d58bc0c0f6c","pictures":["image\/38.jpg","image\/209.jpg","image\/67.jpg","image\/181.jpg"],"postcode":2020,"price":364,"startDate":1537660800000,"suburb":"Mascot","dis":2721.8239227012}
{"_id":"5b9fac754fb73d58bc0c10a6","address":"17 Clove Lane","capacity":1,"endDate":1556150400000,"latitude":-33.903465,"longitude":151.2430962,"owner":"5b9fac744fb73d58bc0c0f4c","pictures":["image\/8.jpg","image\/1.jpg","image\/34.jpg"],"postcode":2031,"price":303,"startDate":1556064000000,"suburb":"Randwick","dis":2723.9795204669}
{"_id":"5b9fac754fb73d58bc0c12d0","address":"15 Earl Street","capacity":3,"endDate":1543536000000,"latitude":-33.9037292,"longitude":151.2438433,"owner":"5b9fac744fb73d58bc0c0f60","pictures":["image\/220.jpg","image\/283.jpg","image\/269.jpg","image\/254.jpg"],"postcode":2031,"price":313,"startDate":1543363200000,"suburb":"Randwick","dis":2737.9393823835}
{"_id":"5b9fac754fb73d58bc0c108b","address":"15 Dransfield Avenue","capacity":7,"endDate":1557619200000,"latitude":-33.935601,"longitude":151.1998673,"owner":"5b9fac744fb73d58bc0c0f56","pictures":["image\/3.jpg","image\/92.jpg","image\/170.jpg","image\/86.jpg","image\/46.jpg"],"postcode":2020,"price":266,"startDate":1557532800000,"suburb":"Mascot","dis":2816.1097372217}
{"_id":"5b9fac754fb73d58bc0c1202","address":"15 Centennial Avenue","capacity":4,"endDate":1543622400000,"latitude":-33.9041964,"longitude":151.2460638,"owner":"5b9fac744fb73d58bc0c0f3f","pictures":["image\/188.jpg","image\/246.jpg","image\/8.jpg"],"postcode":2031,"price":304,"startDate":1543363200000,"suburb":"Randwick","dis":2818.4635913638}
{"_id":"5b9fac754fb73d58bc0c10cd","address":"13 Mount Street","capacity":1,"endDate":1535414400000,"latitude":-33.9128068,"longitude":151.254752,"owner":"5b9fac744fb73d58bc0c0f52","pictures":["image\/161.jpg","image\/109.jpg","image\/38.jpg","image\/289.jpg","image\/144.jpg"],"postcode":2031,"price":310,"startDate":1534896000000,"suburb":"Randwick","dis":2847.2130948255}
{"_id":"5b9fac754fb73d58bc0c10f8","address":"25 Carey Lane","capacity":3,"endDate":1559088000000,"latitude":-33.909216,"longitude":151.2523249,"owner":"5b9fac744fb73d58bc0c0f2f","pictures":["image\/128.jpg","image\/263.jpg","image\/178.jpg","image\/197.jpg"],"postcode":2031,"price":311,"startDate":1558828800000,"suburb":"Randwick","dis":2857.155715453}
{"_id":"5b9fac754fb73d58bc0c1201","address":"13 Bell Lane","capacity":5,"endDate":1559692800000,"latitude":-33.9407968,"longitude":151.2508883,"owner":"5b9fac744fb73d58bc0c0f3e","pictures":["image\/280.jpg","image\/269.jpg","image\/141.jpg"],"postcode":2035,"price":291,"startDate":1559520000000,"suburb":"Randwick","dis":2888.8576336173}
{"_id":"5b9fac754fb73d58bc0c1255","address":"1 Macintosh Street","capacity":6,"endDate":1543104000000,"latitude":-33.9274343,"longitude":151.1946931,"owner":"5b9fac744fb73d58bc0c0f56","pictures":["image\/287.jpg","image\/187.jpg","image\/5.jpg","image\/57.jpg"],"postcode":2020,"price":343,"startDate":1542585600000,"suburb":"Mascot","dis":3005.1680197405}
{"_id":"5b9fac754fb73d58bc0c10a1","address":"13 Hollingshed Street","capacity":1,"endDate":1539820800000,"latitude":-33.9323634,"longitude":151.195586,"owner":"5b9fac744fb73d58bc0c0f2d","pictures":["image\/252.jpg","image\/279.jpg","image\/41.jpg","image\/225.jpg","image\/149.jpg"],"postcode":2020,"price":287,"startDate":1539475200000,"suburb":"Mascot","dis":3043.8801063226}
{"_id":"5b9fac754fb73d58bc0c119c","address":"3 Bishops Avenue","capacity":8,"endDate":1545696000000,"latitude":-33.9083638,"longitude":151.2540766,"owner":"5b9fac744fb73d58bc0c0f80","pictures":["image\/174.jpg","image\/31.jpg"],"postcode":2031,"price":331,"startDate":1545177600000,"suburb":"Randwick","dis":3043.9307379791}
{"_id":"5b9fac754fb73d58bc0c1278","address":"15 Douglas Lane","capacity":5,"endDate":1541030400000,"latitude":-33.9075751,"longitude":151.253539,"owner":"5b9fac744fb73d58bc0c0f6a","pictures":["image\/17.jpg","image\/304.jpg"],"postcode":2031,"price":378,"startDate":1540857600000,"suburb":"Randwick","dis":3054.9620101124}